[{"name":"جامعة دمشق - مستشفى الأسد الجامعي","country":"Syria","city":"","state_district":"Al Mazzah","county":"Rabwa","street":"Sh 17 April","address":"Al-Assad University Hospital, Sh 17 April, 3530 Damascus Governorate, Syria","housenumber":"","location":{"longitude":36.269875367569995,"latitude":33.50566965},"categories":["building","healthcare","healthcare","hospital"],"place_id":"519c056e538822424059b15f04e5b9c04040f00102f901b31dce010000000092033cd8acd8a7d985d8b9d8a920d8afd985d8b4d982202d20d985d8b3d8aad8b4d981d98920d8a7d984d8a3d8b3d8af20d8a7d984d8acd8a7d985d8b9d98a"},{"name":"مشفى الدكتور هشام سنان","country":"Syria","city":"","state_district":"Rukn Eddine","county":"Al Fayhaa","street":"Barnieh Street","address":"Hisham Snan Hospital, Barnieh Street, 1 Damascus Governorate, Syria","housenumber":"","location":{"longitude":36.29853725000001,"latitude":33.53308925},"categories":["building","healthcare","healthcare","hospital"],"place_id":"51a3b1f6773626424059a86bbe443cc44040f00102f901c98d0f0900000000920329d985d8b4d981d98920d8a7d984d8afd983d8aad988d8b120d987d8b4d8a7d98520d8b3d986d8a7d986"},{"name":"مستشفى المواساة","country":"Syria","city":"","state_district":"Al Mazzah","county":"Rabwa","street":"Al Muwassat Street","address":"Mouasat Hospital, Al Muwassat Street, 3530 Damascus Governorate, Syria","housenumber":"","location":{"longitude":36.263103035398785,"latitude":33.51265705},"categories":["healthcare","hospital"],"place_id":"51a155cf6fac214240597287d55fa1c14040f00102f9015e4658160000000092031dd985d8b3d8aad8b4d981d98920d8a7d984d985d988d8a7d8b3d8a7d8a9"},{"name":"Plastic Surgery Clinic","country":"Syria","city":"","state_district":"Salhiyeh","county":"Shuhada","street":"سوق الصالحية","address":"Plastic Surgery Clinic, سوق الصالحية, 10443 Damascus Governorate, Syria","housenumber":"","location":{"longitude":36.291482,"latitude":33.5204363},"categories":["healthcare","clinic_or_praxis"],"place_id":"51b4af3c484f2542405937321ba89dc24040f00103f9014ce9fc9f00000000920316506c6173746963205375726765727920436c696e6963"},{"name":"الزين للتجهيزات الطبية","country":"Syria","city":"","state_district":"Muhajerin","county":"Haboubi","street":"Al Hamra Street","address":"EL Zein Medical Supplies, Al Hamra Street, C5.27, 10443 Damascus Governorate, Syria","housenumber":"C5.27","location":{"longitude":36.2905723,"latitude":33.5200008},"categories":["health_and_beauty","pharmacy","healthcare","pharmacy"],"place_id":"51cfcf1e7931254240594411de628fc24040f00103f9011a9574160100000092032ad8a7d984d8b2d98ad98620d984d984d8aad8acd987d98ad8b2d8a7d8aa20d8a7d984d8b7d8a8d98ad8a9"},{"name":"مخبر شحرور للتحاليل الطبية","country":"Syria","city":"","street":"شارع خالد إبن الوليد","address":"مخبر شحرور للتحاليل الطبية, شارع خالد إبن الوليد, 35044, Syria","housenumber":"","location":{},"categories":["healthcare"],"place_id":"51e124cd1fd325424059c0540e1604c14040f00103f9018fe4dd4f01000000920331d985d8aed8a8d8b120d8b4d8add8b1d988d8b120d984d984d8aad8add8a7d984d98ad98420d8a7d984d8b7d8a8d98ad8a9"},{"name":"مشفى ابن النفيس","country":"Syria","city":"","state_district":"Rukn Eddine","county":"Al Fayhaa","street":"شارع الثورة","address":"Ibn Nafees Hospital, شارع الثورة, 2277 Damascus Governorate, Syria","housenumber":"","location":{"longitude":36.30659897285635,"latitude":33.54717545},"categories":["healthcare","hospital"],"place_id":"51533ac1803a27424059c7911b3503c64040f00102f9019c425d060000000092031cd985d8b4d981d98920d8a7d8a8d98620d8a7d984d986d981d98ad8b3"},{"name":"مستشفى الشهيد باسل الأسد لأمراض وجراحة القلب","country":"Syria","city":"","state_district":"Dummar","county":"Dahiet Dummar","street":"Saad Bin Mou'az Street","address":"Martyr Bassel Al-Assad Heart Hospital, Saad Bin Mou'az Street, 011 Damascus Governorate, Syria","housenumber":"","location":{"longitude":36.2305847,"latitude":33.5258981},"categories":["healthcare","hospital"],"place_id":"519ebaa8cc831d4240598e6201a150c34040f00103f9019380b32300000000920352d985d8b3d8aad8b4d981d98920d8a7d984d8b4d987d98ad8af20d8a8d8a7d8b3d98420d8a7d984d8a3d8b3d8af20d984d8a3d985d8b1d8a7d8b620d988d8acd8b1d8a7d8add8a920d8a7d984d982d984d8a8"},{"name":"العيادة النفسية/د. جميل ركاب","country":"Syria","city":"","state_district":"Salhiyeh","county":"Shuhada","street":"شارع الباكستان","address":"Psychiatric clinic/ Dr. Jameel Rekab, شارع الباكستان, 2277 Damascus Governorate, Syria","housenumber":"","location":{"longitude":36.2937786,"latitude":33.5201757},"categories":["healthcare","clinic_or_praxis","psychiatry"],"place_id":"51e0a183899a2542405921f5081e95c24040f00103f90111c3f90c01000000920333d8a7d984d8b9d98ad8a7d8afd8a920d8a7d984d986d981d8b3d98ad8a92fd8af2e20d8acd985d98ad98420d8b1d983d8a7d8a8"},{"name":"ابراهيم تركماني","country":"Syria","city":"","state_district":"Saroujah","county":"AlQusur","street":"Abdul Karim Al Khattabi Street","address":"Ibrahim Turkmani, Abdul Karim Al Khattabi Street, 2277 Damascus Governorate, Syria","housenumber":"","location":{"longitude":36.310928,"latitude":33.5242109},"categories":["healthcare","dentist"],"place_id":"5191b41b7dcc2742405959f9be5719c34040f00103f901b91f3d260100000092031dd8a7d8a8d8b1d8a7d987d98ad98520d8aad8b1d983d985d8a7d986d98a"},{"name":"مركز دكتور سيريا الطبي","country":"Syria","city":"","state_district":"Saroujah","county":"Saroujah","street":"شارع يوسف العظمة","address":"Doctor Syria Medical Center, شارع يوسف العظمة, Computers, DVDs, CDs, 2277 Damascus Governorate, Syria","housenumber":"","location":{"longitude":36.2971171,"latitude":33.5152312},"categories":["healthcare","clinic_or_praxis","internet_access"],"place_id":"518bcae1ee07264240594f0f9018f3c14040f00103f9017d97873101000000920329d985d8b1d983d8b220d8afd983d8aad988d8b120d8b3d98ad8b1d98ad8a720d8a7d984d8b7d8a8d98a"},{"name":"مستوصف الأكرم - الهلال الأحمر العربي السوري","country":"Syria","city":"","state_district":"Al Mazzah","county":"Fealat Sharqiyeh","street":"Al Salam Street","address":"Al - Akram Polyclinic - Syrian Arab Red Crescent, Al Salam Street, 3530 Damascus Governorate, Syria","housenumber":"","location":{"longitude":36.2420314,"latitude":33.492034},"categories":["healthcare","clinic_or_praxis"],"place_id":"5174cd89e2fa1e424059356158f8fabe4040f00103f901fd092e520100000092034fd985d8b3d8aad988d8b5d98120d8a7d984d8a3d983d8b1d985202d20d8a7d984d987d984d8a7d98420d8a7d984d8a3d8add985d8b120d8a7d984d8b9d8b1d8a8d98a20d8a7d984d8b3d988d8b1d98a"},{"name":"صيدلية المغيث","country":"Syria","city":"Jaramanah","street":"‫شارع البلدية‬‎","address":"صيدلية المغيث, ‫شارع البلدية‬‎, Hawsh al Qadam, 5242 Jaramanah, Syria","housenumber":"","location":{"longitude":36.3416105,"latitude":33.4855512},"categories":["health_and_beauty","pharmacy","healthcare","pharmacy"],"place_id":"5130bc92e4b92b424059e262ad8a26be4040f00103f901a5c4dd5301000000920319d8b5d98ad8afd984d98ad8a920d8a7d984d985d8bad98ad8ab"},{"name":"الداوودي","country":"Syria","city":"","state_district":"Salhiyeh","county":"Shuhada","street":"شارع الباكستان","address":"Daoudi, شارع الباكستان, 2277 Damascus Governorate, Syria","housenumber":"","location":{"longitude":36.2921881,"latitude":33.5206036},"categories":["health_and_beauty","pharmacy","healthcare","pharmacy"],"place_id":"51e3e36e6b6625424059e2358523a3c24040f00103f9013e403f6f01000000920310d8a7d984d8afd8a7d988d988d8afd98a"},{"name":"باسكوال العيادة التجميلية الآمنة","country":"Syria","city":"","state_district":"Salhiyeh","county":"Shuhada","street":"Abderahman ashahbandar","address":"Pascual, Abderahman ashahbandar, 1 Damascus Governorate, Syria","housenumber":"","location":{"longitude":36.2920158,"latitude":33.5248342},"categories":["healthcare","clinic_or_praxis"],"place_id":"51277513c6602542405927885dc42dc34040f00103f90182a437830100000092033dd8a8d8a7d8b3d983d988d8a7d98420d8a7d984d8b9d98ad8a7d8afd8a920d8a7d984d8aad8acd985d98ad984d98ad8a920d8a7d984d8a2d985d986d8a9"},{"name":"د. محمد العادل","country":"Syria","city":"","state_district":"Muhajerin","county":"Haboubi","street":"Hugo Chavez Street","address":"Dr. Mouhamad Al Adel, Hugo Chavez Street, 2313 Damascus Governorate, Syria","housenumber":"","location":{"longitude":36.290064,"latitude":33.5208173},"categories":["healthcare","dentist"],"place_id":"519cdf30d120254240594f772a24aac24040f00103f901d9e32c8801000000920319d8af2e20d985d8add985d8af20d8a7d984d8b9d8a7d8afd984"},{"name":"صيدلية نشأت الكحال","country":"Syria","city":"","state_district":"Muhajerin","county":"Mastaba","street":"Nazem Basha Street","address":"Nashat al kahal, Nazem Basha Street, 2313 Damascus Governorate, Syria","housenumber":"","location":{"longitude":36.2768232,"latitude":33.523248},"categories":["health_and_beauty","pharmacy","healthcare","pharmacy"],"place_id":"5114634ff16e2342405928f85acaf9c24040f00103f9010da8ceac01000000920322d8b5d98ad8afd984d98ad8a920d986d8b4d8a3d8aa20d8a7d984d983d8add8a7d984"},{"name":"مشفى الرازي","country":"Syria","city":"","state_district":"Al Mazzah","county":"Fealat Sharqiyeh","street":"Fayez Mansoor Street","address":"Al Razi Hospital, Fayez Mansoor Street, 3530 Damascus Governorate, Syria","housenumber":"","location":{"longitude":36.2612125,"latitude":33.50434635},"categories":["building","healthcare","healthcare","hospital"],"place_id":"51386744696f214240596dacd26b8ec04040f00102f901e83cd50100000000920315d985d8b4d981d98920d8a7d984d8b1d8a7d8b2d98a"},{"name":"Malak Pharmacy","country":"Syria","city":"","state_district":"Al Mazzah","county":"Fealat Gharbiyeh","street":"Kinanah Street","address":"Malak Pharmacy, Kinanah Street, 3530 Damascus Governorate, Syria","housenumber":"","location":{"longitude":36.2341543,"latitude":33.4935963},"categories":["health_and_beauty","pharmacy","healthcare","pharmacy"],"place_id":"51df5ba2c4f81d4240594115de292ebf4040f00103f9011353f8230000000092030e4d616c616b20506861726d616379"},{"name":"مشفى الإيطالي","country":"Syria","city":"","state_district":"Salhiyeh","county":"Shuhada","street":"Jamal Abdul Nasser Street","address":"Italian Hospital, Jamal Abdul Nasser Street, 1 Damascus Governorate, Syria","housenumber":"","location":{"longitude":36.28966868336393,"latitude":33.52268085},"categories":["healthcare","hospital"],"place_id":"51bdb3f7ec1625424059db44f3aaedc24040f00102f901b5396c3b00000000920319d985d8b4d981d98920d8a7d984d8a5d98ad8b7d8a7d984d98a"},{"name":"صيدلية كفاح","country":"Syria","city":"","state_district":"Barza","county":"Al Manara","street":"Mu'awia Bin Hudaig Lane","address":"صيدلية كفاح, Mu'awia Bin Hudaig Lane, 2277 Damascus Governorate, Syria","housenumber":"","location":{"longitude":36.3151189,"latitude":33.5515661},"categories":["health_and_beauty","pharmacy","healthcare","pharmacy"],"place_id":"51feececd05528424059a7a9cbb799c64040f00103f901af10486a00000000920315d8b5d98ad8afd984d98ad8a920d983d981d8a7d8ad"},{"name":"صيدلية عياش","country":"Syria","city":"","state_district":"Barza","county":"Al Abbas","street":"Al-Qa'aqa' Bin A'mr Attameemi Street","address":"Ayash Pharmacy, Al-Qa'aqa' Bin A'mr Attameemi Street, 2277 Damascus Governorate, Syria","housenumber":"","location":{"longitude":36.3121775,"latitude":33.5515277},"categories":["health_and_beauty","pharmacy","healthcare","pharmacy"],"place_id":"510486ac6ef527424059674aac7598c64040f00103f901d41c6f6c00000000920315d8b5d98ad8afd984d98ad8a920d8b9d98ad8a7d8b4"},{"name":"عيادة الدكتور انطون الحلاق","country":"Syria","city":"","state_district":"Saroujah","county":"AlQusur","street":"Baghdad Street","address":"عيادة الدكتور انطون الحلاق, Baghdad Street, 2277 Damascus Governorate, Syria","housenumber":"","location":{"longitude":36.3116543,"latitude":33.5188588},"categories":["healthcare","clinic_or_praxis"],"place_id":"513214c149e427424059cbbd13f769c24040f00103f901c931cdf800000000920331d8b9d98ad8a7d8afd8a920d8a7d984d8afd983d8aad988d8b120d8a7d986d8b7d988d98620d8a7d984d8add984d8a7d982"},{"name":"مستشفى الكندي","country":"Syria","city":"","state_district":"Al Qanawat","county":"Bab Sreijeh","street":"Bab Srejeh","address":"Al kendy Hospital, Bab Srejeh, 35044 Damascus Governorate, Syria","housenumber":"","location":{"longitude":36.2957737,"latitude":33.5058081},"categories":["healthcare","hospital"],"place_id":"512a42a0e9db2542405963e5de51bec04040f00103f9019218a5ff00000000920319d985d8b3d8aad8b4d981d98920d8a7d984d983d986d8afd98a"},{"name":"صيدلية اياد حماد","country":"Syria","city":"Damascus","street":"ساحة باب مصلى","address":"صيدلية اياد حماد, ساحة باب مصلى, زقاق الطالع, 35044 Damascus, Syria","housenumber":"","location":{"longitude":36.3006427,"latitude":33.4984882},"categories":["health_and_beauty","pharmacy","healthcare","pharmacy"],"place_id":"51fc23c2757b2642405940571976cebf4040f00103f901c1b310340100000092031ed8b5d98ad8afd984d98ad8a920d8a7d98ad8a7d8af20d8add985d8a7d8af"},{"name":"صيدلية محمد الملقي","country":"Syria","city":"","state_district":"Al Qanawat","county":"Al Moujtahed","street":"Al Mujtahed Street","address":"صيدلية محمد الملقي, Al Mujtahed Street, 35044 Damascus Governorate, Syria","housenumber":"","location":{"longitude":36.2968252,"latitude":33.5008322},"categories":["health_and_beauty","pharmacy","healthcare","pharmacy"],"place_id":"5178503f5efe254240590603ff441bc04040f00103f90189b4103401000000920322d8b5d98ad8afd984d98ad8a920d985d8add985d8af20d8a7d984d985d984d982d98a"},{"name":"مستشفى اليمان","country":"Syria","city":"Duma","street":"شارع الجلاء","address":"Yaman Hospital, شارع الجلاء, Almaksaken, Duma, Syria","housenumber":"","location":{"longitude":36.4059863,"latitude":33.5709197},"categories":["healthcare","hospital","internet_access"],"place_id":"51e18fec5bf7334240597c318fe513c94040f00103f90199a0f45301000000920319d985d8b3d8aad8b4d981d98920d8a7d984d98ad985d8a7d986"},{"name":"د وليد متري","country":"Syria","city":"","state_district":"Saroujah","county":"Al Qusa'","street":"TEIB SHARBAK STREET","address":"د وليد متري, TEIB SHARBAK STREET, As-Sufaniyya, 2277 Damascus Governorate, Syria","housenumber":"","location":{"longitude":36.3186586,"latitude":33.5219938},"categories":["healthcare","dentist"],"place_id":"5168cb14cec9284240595cfa5cb1d0c24040f00103f901a1bfb46101000000920314d8af20d988d984d98ad8af20d985d8aad8b1d98a"},{"name":"العيادة الجراحية والتجميلية","country":"Syria","city":"","state_district":"Salhiyeh","county":"Shuhada","street":"شارع الفضيل بن عياض","address":"Surgical and plastic clinic, شارع الفضيل بن عياض, 2277 Damascus Governorate, Syria","housenumber":"","location":{"longitude":36.2941005,"latitude":33.5218187},"categories":["healthcare","clinic_or_praxis"],"place_id":"515e9ece15a525424059589784f4cac24040f00103f90185e2dc6901000000920334d8a7d984d8b9d98ad8a7d8afd8a920d8a7d984d8acd8b1d8a7d8add98ad8a920d988d8a7d984d8aad8acd985d98ad984d98ad8a9"},{"name":"دكتور بشر دعبول","country":"Syria","city":"","state_district":"Muhajerin","county":"Rawda","street":"Zyad Bin Abi Sufian Street","address":"Dr bishir Daaboul, Zyad Bin Abi Sufian Street, 2313 Damascus Governorate, Syria","housenumber":"","location":{"longitude":36.287335,"latitude":33.5222254},"categories":["healthcare","clinic_or_praxis"],"place_id":"5182ffad64c724424059de302a48d8c24040f00103f9018839e96f0100000092031cd8afd983d8aad988d8b120d8a8d8b4d8b120d8afd8b9d8a8d988d984"},{"name":"صيدلية داود","country":"Syria","city":"","state_district":"Al Qanawat","county":"Baramkeh","street":"شارع عثمان بن عفان","address":"صيدلية داود, شارع عثمان بن عفان, 10443 Damascus Governorate, Syria","housenumber":"","location":{"longitude":36.2926999,"latitude":33.5072331},"categories":["health_and_beauty","pharmacy","healthcare","pharmacy"],"place_id":"517005b93077254240593018a303edc04040f00103f901cb1ee09f01000000920315d8b5d98ad8afd984d98ad8a920d8afd8a7d988d8af"},{"name":"صيدلية إسراء المصري","country":"Syria","city":"","state_district":"Barza","county":"Al Manara","street":"Arrahmeh Street","address":"صيدلية إسراء المصري, Arrahmeh Street, 2277 Damascus Governorate, Syria","housenumber":"","location":{"longitude":36.3136356,"latitude":33.5506944},"categories":["health_and_beauty","pharmacy","healthcare","pharmacy"],"place_id":"513f6e1a362528424059ad2a72277dc64040f00103f9011382cc2302000000920324d8b5d98ad8afd984d98ad8a920d8a5d8b3d8b1d8a7d8a120d8a7d984d985d8b5d8b1d98a"},{"name":"مستشفى التوليد","country":"Syria","city":"","state_district":"Al Qanawat","county":"Hijaz","street":"Filastine Street","address":"مستشفى التوليد, Filastine Street, 10443 Damascus Governorate, Syria","housenumber":"","location":{"longitude":36.28977760368092,"latitude":33.5105167},"categories":["building","healthcare","healthcare","hospital"],"place_id":"51de432f301725424059a504a14a52c14040f00102f9012335d5010000000092031bd985d8b3d8aad8b4d981d98920d8a7d984d8aad988d984d98ad8af"},{"name":"مشفى الهلال الأحمر","country":"Syria","city":"","state_district":"Saroujah","county":"Al 'Adwi","street":"Murshed Khater Street","address":"Red Crescent, Murshed Khater Street, 2277 Damascus Governorate, Syria","housenumber":"","location":{"longitude":36.31008762692905,"latitude":33.520400800000004},"categories":["building","healthcare","healthcare","hospital"],"place_id":"51d524f843b1274240593b8dbfda9bc24040f00102f901425bde0200000000920322d985d8b4d981d98920d8a7d984d987d984d8a7d98420d8a7d984d8a3d8add985d8b1"},{"name":"المستشفى الفرنسي","country":"Syria","city":"","state_district":"Saroujah","county":"Al Qusa'","street":"Al Zaynabiya Street","address":"Saint Louis Hospital, Al Zaynabiya Street, As-Sufaniyya, 2277 Damascus Governorate, Syria","housenumber":"","location":{"longitude":36.31614841623379,"latitude":33.5184397},"categories":["healthcare","hospital"],"place_id":"513179acaf7728424059696d6b705bc24040f00102f901a56159060000000092031fd8a7d984d985d8b3d8aad8b4d981d98920d8a7d984d981d8b1d986d8b3d98a"},{"name":"مشفى الشهيد أحمد حاميش","country":"Syria","city":"","state_district":"Barza","county":"Al Manara","street":"Omar Ibin Al Wardi Place","address":"Ahmad Hameesh Hospital, Omar Ibin Al Wardi Place, 963 Damascus Governorate, Syria","housenumber":"","location":{"longitude":36.318911459066136,"latitude":33.5514874},"categories":["healthcare","hospital"],"place_id":"514372158dd12842405902e9db6099c64040f00102f90166435d0600000000920329d985d8b4d981d98920d8a7d984d8b4d987d98ad8af20d8a3d8add985d8af20d8add8a7d985d98ad8b4"},{"name":"مستشفى دمشق","country":"Syria","city":"","state_district":"Al Qanawat","county":"Al Moujtahed","street":"Al Mujtahed Street","address":"Damascus Hospital, Al Mujtahed Street, 35044 Damascus Governorate, Syria","housenumber":"","location":{"longitude":36.29596719888757,"latitude":33.500387450000005},"categories":["healthcare","hospital"],"place_id":"51d255e7f2e12542405926af721608c04040f00102f9011e58210900000000920315d985d8b3d8aad8b4d981d98920d8afd985d8b4d982"},{"name":"مشفى المنار الدولي","country":"Syria","city":"","state_district":"Barza","county":"Nuzha","street":"شارع الثورة","address":"مشفى المنار الدولي, شارع الثورة, 2277 Damascus Governorate, Syria","housenumber":"","location":{"longitude":36.3070547446873,"latitude":33.543739099999996},"categories":["building","healthcare","healthcare","hospital"],"place_id":"51ed2ee7804d274240597e8b21a396c54040f00102f901fd52290a00000000920322d985d8b4d981d98920d8a7d984d985d986d8a7d8b120d8a7d984d8afd988d984d98a"},{"name":"مستشفى الأطفال","country":"Syria","city":"","state_district":"Al Mazzah","county":"Rabwa","street":"Al Muwassat Street","address":"Children's Hospital, Al Muwassat Street, 3530 Damascus Governorate, Syria","housenumber":"","location":{"longitude":36.2616622,"latitude":33.5122831},"categories":["healthcare","hospital"],"place_id":"51bacc9f257e214240595c841b7e92c14040f00103f901b126ec1a0000000092031bd985d8b3d8aad8b4d981d98920d8a7d984d8a3d8b7d981d8a7d984"},{"name":"دكتور تركجي","country":"Syria","city":"","state_district":"Saroujah","county":"Saroujah","street":"Al Furat Street","address":"Dr Tarakji, Al Furat Street, 10443 Damascus Governorate, Syria","housenumber":"","location":{"longitude":36.2973512,"latitude":33.512707},"categories":["healthcare","clinic_or_praxis"],"place_id":"5193b6a79a0f26424059e0d50962a0c14040f00103f901d181f21a00000000920315d8afd983d8aad988d8b120d8aad8b1d983d8acd98a"}]